,City,Country,Lat,Lng,Max Temp,Humidity,Cloudiness,Wind Speed,Current Description
0,San Juan,AR,-31.5375,-68.5364,91.36,31,0,19.22,clear sky
1,Vaini,TO,-21.2,-175.2,84.2,79,20,8.05,few clouds
2,Hervey Bay,AU,-25.2986,152.8535,78.01,77,4,3.0,clear sky
3,Qaanaaq,GL,77.484,-69.3632,7.41,76,74,4.99,broken clouds
4,Waddan,LY,29.1614,16.139,49.42,60,0,0.87,clear sky
5,Tuktoyaktuk,CA,69.4541,-133.0374,-7.6,77,90,8.05,overcast clouds
6,Laguna,US,38.421,-121.4238,51.8,87,90,4.61,mist
7,Kodiak,US,57.79,-152.4072,37.4,93,90,32.21,light rain
8,Mataura,NZ,-46.1927,168.8643,73.0,64,47,3.0,scattered clouds
9,Rikitea,PF,-23.1203,-134.9692,77.58,72,77,10.13,broken clouds
10,Kapaa,US,22.0752,-159.319,77.0,78,90,10.36,light rain
11,Saskylakh,RU,71.9167,114.0833,-47.06,76,47,2.28,scattered clouds
12,Mar Del Plata,AR,-38.0023,-57.5575,69.8,78,0,20.71,clear sky
13,Hermanus,ZA,-34.4187,19.2345,66.99,86,0,1.99,clear sky
14,Carnarvon,AU,-24.8667,113.6333,77.0,100,0,13.8,clear sky
15,Chokurdakh,RU,70.6333,147.9167,-20.49,89,95,8.43,overcast clouds
16,New Norfolk,AU,-42.7826,147.0587,57.0,54,8,2.42,light rain
17,Butaritari,KI,3.0707,172.7902,81.32,77,39,22.62,scattered clouds
18,Ylojarvi,FI,61.5563,23.5961,-7.6,77,0,3.44,clear sky
19,General Salgado,BR,-20.6483,-50.3606,75.9,78,99,6.89,overcast clouds
20,Bethel,US,41.3712,-73.414,44.6,65,90,3.44,overcast clouds
21,Puerto Ayora,EC,-0.7393,-90.3518,80.6,78,75,4.61,broken clouds
22,Khudumelapye,BW,-23.8833,24.75,77.74,49,37,5.88,scattered clouds
23,Husavik,IS,66.0449,-17.3389,37.4,70,0,10.36,clear sky
24,Ambon,ID,-3.6954,128.1814,79.0,94,40,4.61,scattered clouds
25,Ixtapa,MX,20.7,-105.2,73.4,73,75,11.5,broken clouds
26,Zarubino,RU,42.63,131.0922,20.32,94,100,13.06,overcast clouds
27,La Libertad,EC,-2.2333,-80.9,84.2,70,0,8.05,clear sky
28,Provideniya,RU,64.3833,-173.3,10.4,85,90,8.95,overcast clouds
29,Limoges,FR,45.75,1.3333,45.0,93,75,14.97,broken clouds
30,Cape Town,ZA,-33.9258,18.4232,66.99,94,75,12.66,broken clouds
31,Den Helder,NL,52.9599,4.7593,36.0,75,90,13.8,overcast clouds
32,Port Alfred,ZA,-33.5906,26.891,74.86,88,91,19.57,overcast clouds
33,Morehead,US,37.2711,-87.1764,57.2,35,1,12.66,clear sky
34,Thompson,CA,55.7435,-97.8558,26.6,93,90,12.66,snow
35,Albany,US,42.6001,-73.9662,37.0,70,100,0.63,overcast clouds
36,Pak Phanang,TH,8.3511,100.202,77.43,71,97,5.39,overcast clouds
37,Ahipara,NZ,-35.1667,173.1667,72.09,59,1,6.78,clear sky
38,Clyde River,CA,70.4692,-68.5914,-13.0,77,1,4.61,clear sky
39,East London,ZA,-33.0153,27.9116,75.72,88,74,14.29,broken clouds
40,Ushuaia,AR,-54.8,-68.3,53.6,58,20,3.44,few clouds
41,Khatanga,RU,71.9667,102.5,-50.8,76,52,2.28,broken clouds
42,Dombarovskiy,RU,50.7587,59.5386,10.0,91,100,23.69,overcast clouds
43,Zhuhai,CN,22.2769,113.5678,60.8,82,0,2.3,clear sky
44,Torbay,CA,47.6666,-52.7314,36.0,100,90,6.91,light snow
45,Santa Isabel Do Rio Negro,BR,-0.4139,-65.0192,82.0,79,98,1.5,overcast clouds
46,Kavieng,PG,-2.5744,150.7967,83.53,73,100,7.78,overcast clouds
47,Porto Uniao,BR,-26.2381,-51.0783,68.95,78,92,6.91,overcast clouds
48,Bagdarin,RU,54.4333,113.6,-17.28,79,90,1.77,overcast clouds
49,Srikakulam,IN,18.3,83.9,68.59,88,0,4.05,clear sky
50,Wenling,CN,28.3669,121.36,50.0,82,0,2.91,clear sky
51,Pangody,RU,65.85,74.4859,-8.01,89,100,8.46,overcast clouds
52,Airai,TL,-8.9266,125.4092,62.64,100,90,0.56,overcast clouds
53,Itarema,BR,-2.9248,-39.9167,79.3,78,45,12.08,scattered clouds
54,Buala,SB,-8.145,159.5921,84.24,70,84,6.71,broken clouds
55,Fort Nelson,CA,58.8053,-122.7002,15.8,73,75,4.61,broken clouds
56,Nikolskoye,RU,59.7035,30.7861,3.99,78,75,2.24,light snow
57,Busselton,AU,-33.65,115.3333,61.0,76,37,3.0,scattered clouds
58,Yamada,JP,39.4667,141.95,24.21,88,0,5.86,clear sky
59,Victoria,HK,22.2855,114.1577,61.0,63,0,8.01,clear sky
60,Codrington,AU,-38.2667,141.9667,56.79,62,51,22.03,broken clouds
61,Zaysan,KZ,47.4667,84.8667,-17.32,83,68,1.66,broken clouds
62,Sasaram,IN,24.951,84.0149,47.1,54,0,3.09,clear sky
63,Honiara,SB,-9.4333,159.95,84.49,67,88,3.38,overcast clouds
64,Dikson,RU,73.5069,80.5464,-28.75,81,0,5.06,clear sky
65,Kieta,PG,-6.2167,155.6333,83.75,65,74,1.86,broken clouds
66,Bonavista,CA,48.6499,-53.1147,33.01,80,100,2.3,overcast clouds
67,Shingu,JP,33.7333,135.9833,43.21,68,84,5.03,broken clouds
68,Churapcha,RU,62.0025,132.4325,-47.83,76,78,3.89,broken clouds
69,Harper,LR,4.375,-7.7169,78.55,85,88,8.39,light rain
70,Mount Gambier,AU,-37.8333,140.7667,55.4,67,75,13.8,broken clouds
71,Guiglo,CI,6.5456,-7.4966,76.32,73,39,4.12,scattered clouds
72,Ostersund,SE,63.1792,14.6357,1.99,85,84,3.44,broken clouds
73,Montijo,PT,38.7067,-8.9739,52.0,87,20,3.44,few clouds
74,Bria,CF,6.5423,21.9863,72.46,23,100,4.94,overcast clouds
75,Longyearbyen,SJ,78.2186,15.6401,26.6,80,75,5.75,broken clouds
76,Saint-Philippe,RE,-21.3585,55.7679,78.8,83,75,2.3,broken clouds
77,Broome,US,42.2506,-75.833,37.0,80,90,4.61,overcast clouds
78,Constitucion,CL,-35.3333,-72.4167,63.19,56,6,18.07,clear sky
79,Cap-Aux-Meules,CA,47.3821,-61.8597,32.0,86,100,2.3,light snow
80,Yagodnoye,RU,62.55,149.6667,-25.11,83,86,0.43,overcast clouds
81,Lakatoro,VU,-16.0999,167.4164,84.65,74,78,8.5,moderate rain
82,Benjamin Hill,MX,30.1667,-111.1,82.99,8,13,3.0,few clouds
83,El Dovio,CO,4.5079,-76.2362,80.6,54,20,5.75,few clouds
84,Nogliki,RU,51.8333,143.1667,-10.57,84,91,13.11,overcast clouds
85,Bluff,NZ,-46.6,168.3333,73.0,64,21,3.0,few clouds
86,Antofagasta,CL,-23.65,-70.4,71.01,68,40,17.27,scattered clouds
87,Talnakh,RU,69.4865,88.3972,-41.73,79,32,1.66,scattered clouds
88,Jamestown,US,42.097,-79.2353,37.0,100,90,4.61,mist
89,Henties Bay,NA,-22.116,14.2845,71.01,80,98,5.77,overcast clouds
90,Porto Santo,PT,33.072,-16.3415,55.4,67,40,9.22,scattered clouds
91,Stephenville,US,32.2207,-98.2023,59.0,18,1,20.71,clear sky
92,Lebu,CL,-37.6167,-73.65,59.92,66,85,8.72,overcast clouds
93,Tateyama,JP,34.9833,139.8667,44.01,53,81,3.0,light rain
94,Tasiilaq,GL,65.6145,-37.6368,35.6,80,90,11.5,light rain
95,Los Llanos De Aridane,ES,28.6585,-17.9182,64.4,59,90,17.27,overcast clouds
96,Kruisfontein,ZA,-34.0033,24.7314,73.0,87,74,1.99,broken clouds
97,Georgetown,MY,5.4112,100.3354,78.8,88,20,2.3,few clouds
98,San Patricio,US,28.017,-97.5169,82.4,16,1,18.41,clear sky
99,Upernavik,GL,72.7868,-56.1549,18.86,96,100,6.78,light snow
100,Ponta Do Sol,PT,32.6667,-17.1,57.2,67,40,9.22,scattered clouds
101,Eyrarbakki,IS,63.863,-21.1481,37.99,81,75,9.22,broken clouds
102,Khorramshahr,IR,30.4397,48.1664,59.0,77,0,9.22,clear sky
103,Hobart,AU,-42.8794,147.3294,57.2,62,40,5.75,light rain
104,Sao Filipe,CV,14.8961,-24.4956,73.44,67,100,13.44,overcast clouds
105,Atuona,PF,-9.8,-139.0333,77.36,78,23,14.72,few clouds
106,Barrow,US,71.2906,-156.7887,-11.2,77,1,14.97,clear sky
107,Dunedin,NZ,-45.8742,170.5036,66.99,67,57,5.99,broken clouds
108,Udachnyy,RU,66.4167,112.4,-26.32,83,100,14.23,overcast clouds
109,Pemba,MZ,-12.974,40.5178,80.6,83,75,12.66,broken clouds
110,Maceio,BR,-9.6658,-35.7353,78.8,78,0,14.97,clear sky
111,Nova Olimpia,BR,-14.7972,-57.2881,82.92,74,58,3.38,moderate rain
112,Faanui,PF,-16.4833,-151.75,81.63,75,16,16.4,light rain
113,Avera,US,33.194,-82.5271,57.2,38,1,9.22,clear sky
114,Korla,CN,41.7597,86.1469,18.43,84,0,8.61,clear sky
115,Cachira,CO,7.741,-73.0483,86.0,54,40,10.36,scattered clouds
116,Samarai,PG,-10.6167,150.6667,79.5,88,100,13.4,light rain
117,Asau,RO,46.4333,26.4,23.0,100,75,3.44,broken clouds
118,Praia Da Vitoria,PT,38.7333,-27.0667,62.6,88,75,23.44,broken clouds
119,Avarua,CK,-21.2078,-159.775,86.0,70,20,14.97,few clouds
120,Iwanai,JP,42.9744,140.5089,22.08,88,99,7.78,light snow
121,Brigantine,US,39.4101,-74.3646,48.2,61,1,6.91,clear sky
122,Kangaatsiaq,GL,68.3065,-53.4641,15.31,96,100,3.33,overcast clouds
123,Arraial Do Cabo,BR,-22.9661,-42.0278,80.6,73,0,18.41,clear sky
124,Castro,BR,-24.7911,-50.0119,67.57,86,55,10.18,broken clouds
125,Lamont,US,35.2597,-118.9143,64.99,36,1,3.31,haze
126,Totskoye,RU,52.5248,52.7623,16.16,93,100,17.16,snow
127,Havelock,US,34.8791,-76.9013,51.01,77,0,1.99,clear sky
128,Huanren,CN,41.2647,125.3667,18.45,92,100,2.55,light snow
129,Juneau,US,58.3019,-134.4197,35.6,80,90,10.36,snow
130,Iqaluit,CA,63.7506,-68.5145,-9.0,77,40,5.75,scattered clouds
131,Camacha,PT,33.0833,-16.3333,55.4,67,40,9.22,scattered clouds
132,Ribeira Grande,PT,38.5167,-28.7,62.6,94,75,16.11,broken clouds
133,Bambous Virieux,MU,-20.3428,57.7575,77.0,88,40,8.93,scattered clouds
134,Bengkulu,ID,-3.8004,102.2655,75.22,83,70,5.12,broken clouds
135,Pastos Bons,BR,-6.6017,-44.0767,75.25,90,93,3.04,light rain
136,Mangaratiba,BR,-22.9597,-44.0406,87.8,55,20,9.22,few clouds
137,Yellowknife,CA,62.456,-114.3525,8.6,85,75,4.61,broken clouds
138,Geraldton,AU,-28.7667,114.6,82.4,34,0,13.8,clear sky
139,Erenhot,CN,43.6475,111.9767,-8.28,87,33,9.35,scattered clouds
140,Norman Wells,CA,65.282,-126.8329,1.4,85,75,2.3,broken clouds
141,Nome,US,64.5011,-165.4064,15.8,86,90,5.28,overcast clouds
142,Fortuna,US,40.5982,-124.1573,64.99,63,1,3.44,clear sky
143,Yairipok,IN,24.6667,94.0667,46.81,84,5,1.21,clear sky
144,Chumikan,RU,54.7183,135.315,-17.54,81,0,20.18,clear sky
145,Hilo,US,19.7297,-155.09,82.4,54,40,8.05,scattered clouds
146,Machacamarca,BO,-18.1667,-67.0333,58.01,55,99,9.86,moderate rain
147,Kaitangata,NZ,-46.2817,169.8464,63.0,82,97,5.99,overcast clouds
148,Port Moresby,PG,-9.4431,147.1797,78.8,94,75,6.91,broken clouds
149,Mvuma,ZW,-19.2792,30.5283,65.3,93,99,5.35,light rain
150,Cayenne,GF,4.9333,-52.3333,78.8,89,75,4.61,broken clouds
151,Port Elizabeth,ZA,-33.918,25.5701,69.8,100,90,13.8,mist
152,Uruzgan,AF,32.8333,66.0,37.47,59,15,5.75,few clouds
153,Abu Dhabi,AE,24.4667,54.3667,62.6,82,0,1.14,clear sky
154,Sidi Ali,DZ,36.0998,0.4206,50.77,84,85,10.25,overcast clouds
155,Okhotsk,RU,59.3833,143.3,-14.84,80,85,8.43,overcast clouds
156,Westport,US,41.1415,-73.3579,42.01,24,90,2.62,overcast clouds
157,Esso,RU,55.9333,158.7,-1.97,85,100,1.74,overcast clouds
158,Luderitz,NA,-26.6481,15.1594,65.41,83,24,6.93,few clouds
159,Kavaratti,IN,10.5669,72.642,82.29,72,94,6.64,overcast clouds
160,Chapais,CA,49.7834,-74.8492,26.6,86,90,3.44,overcast clouds
161,Saint-Georges,GD,12.0564,-61.7485,80.6,78,20,17.27,few clouds
162,Pundaguitan,PH,6.3711,126.1689,82.2,73,48,3.15,light rain
163,Pimentel,PE,-6.8367,-79.9342,80.6,54,0,24.16,clear sky
164,San Luis,AR,-33.295,-66.3356,84.11,43,23,15.95,few clouds
165,Olinda,BR,-8.0089,-34.8553,80.6,65,75,9.22,broken clouds
166,Punta Arenas,CL,-53.15,-70.9167,55.4,71,20,12.66,few clouds
167,Eureka,US,40.8021,-124.1637,64.99,78,3,5.01,clear sky
168,Touros,BR,-5.1989,-35.4608,80.6,74,20,14.97,few clouds
169,Bannu,PK,32.9854,70.6027,47.5,43,0,1.21,clear sky
170,Hofn,IS,64.2539,-15.2082,37.96,75,1,6.31,clear sky
171,Namatanai,PG,-3.6667,152.4333,83.57,68,100,3.58,overcast clouds
172,Nyrob,RU,60.733,56.7202,9.07,95,100,6.85,light snow
173,Olafsvik,IS,64.8945,-23.7142,40.46,76,90,22.53,overcast clouds
174,Solnechnyy,RU,50.7214,136.6319,-11.02,86,19,3.31,few clouds
175,Vao,NC,-22.6667,167.4833,77.0,92,100,15.14,overcast clouds
176,Luorong,CN,24.4058,109.6086,51.46,40,34,1.59,scattered clouds
177,Vila Franca Do Campo,PT,37.7167,-25.4333,62.01,94,75,12.66,broken clouds
178,Metro,ID,-5.1131,105.3067,73.42,94,100,4.56,overcast clouds
179,Tura,IN,25.5198,90.2201,54.95,71,1,3.02,clear sky
180,Dongsheng,CN,39.8161,109.9776,13.03,84,65,15.12,broken clouds
181,Camopi,GF,3.1655,-52.3158,73.36,98,100,2.98,overcast clouds
182,Kagoro,NG,9.6,8.3833,68.22,23,28,6.06,scattered clouds
183,Usoke,TZ,-5.1667,32.35,64.89,88,99,2.75,overcast clouds
184,Manta,EC,-0.95,-80.7333,87.8,62,20,16.11,few clouds
185,Saint Pete Beach,US,27.7253,-82.7412,62.01,82,1,12.66,clear sky
186,Santa Maria,BR,-29.6842,-53.8069,82.4,51,0,19.57,clear sky
187,San Policarpo,PH,12.1791,125.5072,78.58,82,70,7.54,broken clouds
188,Te Anau,NZ,-45.4167,167.7167,68.38,55,37,2.28,scattered clouds
189,Qaqortoq,GL,60.7167,-46.0333,24.8,80,90,4.61,overcast clouds
190,Haimen,CN,23.1935,116.6142,46.4,93,0,6.38,mist
191,Sile,TR,41.1754,29.6133,39.0,81,40,5.75,scattered clouds
192,Yulara,AU,-25.2406,130.9889,80.6,32,14,9.22,few clouds
193,Dingle,PH,10.9995,122.6711,74.44,93,30,5.1,scattered clouds
194,Noumea,NC,-22.2763,166.4572,81.0,89,0,4.61,clear sky
195,Griffith,US,41.5284,-87.4237,41.0,81,90,10.36,light rain
196,Warman,CA,52.3168,-106.5679,30.0,80,75,29.93,snow
197,Mandalgovi,MN,45.7625,106.2708,-9.83,82,21,10.29,few clouds
198,Prado,BR,-17.3411,-39.2208,77.92,82,0,8.68,clear sky
199,Letnik,RU,46.011,41.2657,34.54,87,100,6.62,light snow
200,Sao Joao Da Barra,BR,-21.6403,-41.0511,80.6,69,0,18.41,clear sky
201,Severo-Kurilsk,RU,50.6789,156.125,24.96,93,100,17.85,light snow
202,Broken Hill,AU,-31.95,141.4333,57.2,54,6,20.71,clear sky
203,Hithadhoo,MV,-0.6,73.0833,81.45,79,100,18.03,overcast clouds
204,Pilar,BR,-9.5972,-35.9567,78.8,78,0,14.97,clear sky
205,Mbandaka,CD,0.0487,18.2603,73.27,86,98,5.73,overcast clouds
206,Bouna,CI,9.2667,-3.0,75.65,17,91,2.57,overcast clouds
207,Iwata,JP,34.7,137.85,41.0,75,60,1.99,broken clouds
208,Egvekinot,RU,66.3167,-179.1667,-7.53,91,100,7.74,overcast clouds
209,Camana,PE,-16.6228,-72.7111,72.07,71,94,6.29,overcast clouds
210,Pisco,PE,-13.7,-76.2167,77.0,65,0,23.02,clear sky
211,Wajid,SO,3.8093,43.2471,74.88,48,0,13.65,clear sky
212,Hasaki,JP,35.7333,140.8333,41.0,70,75,6.91,broken clouds
213,Ballina,AU,-28.8667,153.5667,75.2,78,0,2.3,clear sky
214,Chestermere,CA,51.0334,-113.8187,30.99,43,20,8.05,few clouds
215,Saint George,US,37.1041,-113.5841,61.0,29,1,2.04,clear sky
216,Ugra,RU,54.7777,34.3267,-5.03,91,82,3.47,broken clouds
217,Prieska,ZA,-29.6641,22.7474,76.59,61,35,6.13,moderate rain
218,Tupik,RU,54.4253,119.9327,-28.12,79,0,1.86,clear sky
219,Izhma,RU,65.0083,53.9113,-10.7,88,100,3.67,overcast clouds
220,Richards Bay,ZA,-28.783,32.0377,74.52,86,83,7.11,broken clouds
221,Kihei,US,20.785,-156.4656,82.4,57,40,18.41,scattered clouds
222,Tessalit,ML,20.1986,1.0114,65.05,24,0,13.65,clear sky
223,Warrington,GB,53.3925,-2.5802,36.0,100,75,6.91,broken clouds
224,Gamba,GA,-2.65,10.0,74.61,90,44,3.2,scattered clouds
225,Vestmanna,FO,62.1564,-7.1664,35.6,100,96,3.85,overcast clouds
226,Iracoubo,GF,5.4802,-53.2011,76.86,88,100,13.0,overcast clouds
227,Sivas,TR,39.7916,37.0019,24.8,100,90,6.91,overcast clouds
228,Marawi,PH,7.9986,124.2928,75.0,96,86,4.0,overcast clouds
229,Tual,ID,-5.6667,132.75,84.04,76,100,10.2,moderate rain
230,Klaksvik,FO,62.2266,-6.589,35.6,100,100,9.53,light rain
231,Tiksi,RU,71.6872,128.8694,-32.33,84,99,2.57,overcast clouds
232,Pevek,RU,69.7008,170.3133,-17.72,89,95,4.41,overcast clouds
233,Paamiut,GL,61.994,-49.6678,22.44,90,85,9.57,overcast clouds
234,Ushumun,RU,52.7833,126.5333,-25.13,86,0,3.74,clear sky
235,Bathsheba,BB,13.2167,-59.5167,80.6,74,20,20.71,few clouds
236,Salinopolis,BR,-0.6136,-47.3561,80.28,80,41,13.04,scattered clouds
237,Ancud,CL,-41.8697,-73.8203,59.0,67,75,12.66,light rain
238,Sambava,MG,-14.2667,50.1667,78.4,84,32,1.92,scattered clouds
239,Chilca,PE,-12.5211,-76.7372,71.6,73,0,11.5,moderate rain
240,Camocim,BR,-2.9022,-40.8411,80.58,75,75,14.7,broken clouds
241,Tecoanapa,MX,16.5167,-98.75,82.51,69,100,11.39,overcast clouds
242,Tautira,PF,-17.7333,-149.15,87.8,62,40,3.44,scattered clouds
243,Pathein,MM,16.7833,94.7333,63.66,78,0,2.57,clear sky
244,Mahebourg,MU,-20.4081,57.7,77.0,88,40,8.48,scattered clouds
245,Loubomo,CG,-4.1997,12.6739,70.2,94,58,2.48,broken clouds
246,Portland,US,45.5234,-122.6762,55.99,50,40,6.91,scattered clouds
247,Sitka,US,57.0531,-135.33,41.0,75,90,28.77,light rain
248,Pringsewu,ID,-5.3582,104.9744,73.09,93,96,1.52,overcast clouds
249,Esperance,AU,-33.8667,121.9,59.0,77,90,6.91,overcast clouds
250,Naze,JP,28.3667,129.4833,64.4,68,75,13.8,broken clouds
251,Orlik,RU,52.5178,99.825,-23.93,74,61,3.51,broken clouds
252,Lock Haven,US,41.137,-77.4469,41.0,71,99,1.74,overcast clouds
253,Sulangan,PH,11.1373,123.7228,79.83,79,99,7.96,overcast clouds
254,Souillac,MU,-20.5167,57.5167,77.0,88,40,6.87,scattered clouds
255,Saldanha,ZA,-33.0117,17.9442,64.4,88,19,13.8,few clouds
256,Hamilton,US,39.1834,-84.5333,48.0,76,100,3.0,overcast clouds
257,Bredasdorp,ZA,-34.5322,20.0403,68.0,94,81,3.44,broken clouds
258,Coolum Beach,AU,-26.5333,153.1,79.0,82,6,1.72,clear sky
259,Mount Isa,AU,-20.7333,139.5,84.2,37,40,10.67,scattered clouds
260,Srednekolymsk,RU,67.45,153.6833,-19.05,87,100,13.91,overcast clouds
261,Vostok,RU,46.4856,135.8833,-11.15,89,30,4.05,scattered clouds
262,Yenagoa,NG,4.9247,6.2642,76.55,86,0,7.14,clear sky
263,Khanu Woralaksaburi,TH,16.0617,99.8606,66.99,68,0,1.48,clear sky
264,Salalah,OM,17.0151,54.0924,77.0,13,0,13.8,clear sky
265,Zaqatala,AZ,41.6336,46.6433,46.4,87,75,9.22,light rain
266,Komsomolskiy,UZ,40.4272,71.7189,30.2,74,0,4.61,mist
267,Berbera,SO,10.4396,45.0143,73.53,74,46,6.22,scattered clouds
268,Saint-Paul,RE,-21.0096,55.2707,75.2,88,90,11.5,light rain
269,Marsh Harbour,BS,26.5412,-77.0636,71.24,79,99,11.1,overcast clouds
270,Nicoya,CR,10.1483,-85.452,89.6,51,20,12.66,few clouds
271,Rocha,UY,-34.4833,-54.3333,70.12,51,0,13.67,clear sky
272,Alyangula,AU,-13.8483,136.4192,77.0,100,91,6.15,overcast clouds
273,Kahului,US,20.8947,-156.47,82.4,57,40,18.41,scattered clouds
274,Lorengau,PG,-2.0226,147.2712,84.38,68,100,9.04,overcast clouds
275,Hambantota,LK,6.1241,81.1185,75.2,100,90,5.91,moderate rain
276,Ahuimanu,US,21.4447,-157.8378,80.6,73,75,10.36,broken clouds
277,Isangel,VU,-19.55,169.2667,77.0,100,90,8.08,moderate rain
278,Conde,BR,-7.2597,-34.9075,80.6,78,20,8.05,few clouds
279,Tevaitoa,PF,-16.7833,-151.5,81.54,74,10,16.17,clear sky
280,San Ramon,US,37.7799,-121.978,70.0,48,1,16.11,clear sky
281,Makakilo City,US,21.3469,-158.0858,80.6,61,1,8.05,clear sky
282,Pozo Colorado,PY,-23.4923,-58.7972,91.38,54,98,6.26,light rain
283,Hunucma,MX,21.0167,-89.8667,77.0,65,75,5.75,broken clouds
284,Comodoro Rivadavia,AR,-45.8667,-67.5,82.4,23,0,12.66,clear sky
285,Ponca City,US,36.707,-97.0856,53.6,24,1,18.41,clear sky
286,Chihuahua,MX,28.5,-106.0,68.0,14,20,10.36,few clouds
287,Gornopravdinsk,RU,60.05,69.9,-12.62,87,98,6.33,overcast clouds
288,Christchurch,NZ,-43.5333,172.6333,64.99,82,90,5.75,overcast clouds
289,North Bend,US,43.4065,-124.2243,69.01,63,1,3.44,clear sky
290,Sola,VU,-13.8833,167.55,86.0,84,40,9.24,scattered clouds
291,Okha,RU,53.5739,142.9478,-13.45,88,81,14.5,broken clouds
292,Lagdo,CM,9.05,13.7333,73.11,20,2,2.91,clear sky
293,Ferkessedougou,CI,9.6,-5.2,75.15,18,1,2.77,clear sky
294,Rockland,US,41.1668,-74.0496,46.0,75,98,2.42,overcast clouds
295,Duluth,US,46.7833,-92.1066,34.0,86,75,17.27,snow
296,Tashigang,BT,27.3331,91.5542,49.55,64,33,3.18,scattered clouds
297,Grand-Santi,GF,4.25,-54.3833,73.98,96,90,3.24,overcast clouds
298,Araouane,ML,18.9048,-3.5265,68.92,22,0,13.38,clear sky
299,Tevriz,RU,57.509,72.4042,-17.14,86,15,4.38,few clouds
300,Quatre Cocos,MU,-20.2078,57.7625,77.0,88,40,9.86,scattered clouds
301,Lima,PE,-12.0432,-77.0282,71.6,73,0,11.5,light rain
302,Cabo San Lucas,MX,22.8909,-109.9124,75.2,33,1,5.75,clear sky
303,Bandarban,BD,22.1965,92.2262,54.68,77,100,2.15,overcast clouds
304,Mbigou,GA,-1.9005,11.906,66.58,91,95,0.16,overcast clouds
305,Aswan,EG,24.0934,32.907,55.24,47,33,10.04,scattered clouds
306,Todos Santos,MX,23.45,-110.2167,75.99,38,0,5.01,clear sky
307,Villa Rica,US,33.7321,-84.9191,55.0,58,2,5.99,clear sky
308,Crestview,US,30.7621,-86.5705,62.6,36,1,10.36,clear sky
309,Luziania,BR,-16.2525,-47.9503,75.2,69,40,8.05,light rain
310,Kloulklubed,PW,7.0419,134.2556,78.8,94,75,5.75,broken clouds
311,Mae Ramat,TH,16.984,98.5166,59.86,78,0,1.63,clear sky
312,Guerrero Negro,MX,27.9769,-114.0611,77.04,16,0,7.4,clear sky
313,Kandrian,PG,-6.2167,149.55,81.86,80,95,9.44,overcast clouds
314,Svetlyy,RU,54.675,20.1347,23.0,86,0,4.47,clear sky
315,Barranca,PE,-10.75,-77.7667,72.21,78,87,7.99,overcast clouds
316,Kropotkin,RU,45.4375,40.5756,33.58,94,100,10.54,light snow
317,Half Moon Bay,US,37.4636,-122.4286,68.0,49,1,8.05,clear sky
318,Tomohon,ID,1.3346,124.8392,77.0,94,40,3.44,scattered clouds
319,Lucea,JM,18.451,-78.1736,81.0,78,75,14.97,broken clouds
320,Inverell,AU,-29.7833,151.1167,75.0,71,6,1.01,clear sky
321,Berlevag,NO,70.8578,29.0864,32.0,80,75,12.66,light snow
322,Pierre,US,44.3683,-100.351,42.8,26,40,44.87,scattered clouds
323,Gao,ML,16.6362,1.637,73.53,18,0,10.09,clear sky
324,Tsuruga,JP,35.6455,136.0558,39.74,71,0,3.18,clear sky
325,Kastamonu,TR,41.5,33.6667,26.62,95,85,7.67,overcast clouds
326,Kultayevo,RU,57.8943,55.9392,8.6,72,75,13.42,snow
327,Aklavik,CA,68.2191,-135.0107,-5.8,77,81,1.14,broken clouds
328,Bambanglipuro,ID,-7.95,110.2833,75.78,77,100,2.66,heavy intensity rain
329,Chirilagua,SV,13.2203,-88.1386,93.2,38,0,8.05,clear sky
330,Conceicao Da Barra,BR,-18.5933,-39.7322,77.68,79,0,8.7,clear sky
331,Labuhan,ID,-6.8844,112.2051,76.77,85,100,10.38,overcast clouds
332,Svetlogorsk,BY,52.6333,29.7333,8.69,94,99,8.63,overcast clouds
333,Changji,CN,44.0167,87.3167,6.8,92,75,0.65,light snow
334,Pangnirtung,CA,66.1451,-65.7125,-14.8,76,20,2.24,few clouds
335,Coihaique,CL,-45.5752,-72.0662,71.6,33,0,9.22,clear sky
336,Tuy Hoa,VN,13.0833,109.3,64.38,86,83,6.26,broken clouds
337,Tandalti,SD,13.0167,31.8667,72.55,21,0,13.53,clear sky
338,Halifax,CA,44.6453,-63.5724,37.99,100,90,3.44,light intensity drizzle
339,Necochea,AR,-38.5473,-58.7368,78.01,47,23,19.01,few clouds
340,Abramovka,RU,51.1886,41.0202,10.45,95,65,4.85,broken clouds
341,Karaj,IR,35.8355,51.0103,42.8,52,75,6.91,haze
342,Ransang,PH,8.9603,117.5828,78.15,82,100,4.29,moderate rain
343,Fairbanks,US,64.8378,-147.7164,-9.4,77,40,2.3,scattered clouds
344,Biltine,TD,14.5333,20.9167,68.4,23,1,12.08,clear sky
345,Kawalu,ID,-7.3817,108.2082,71.8,86,100,2.1,overcast clouds
346,Mwinilunga,ZM,-11.7358,24.4293,63.64,97,100,7.05,moderate rain
347,Bubaque,GW,11.2833,-15.8333,78.21,65,20,13.82,few clouds
348,Morbach,DE,49.8167,7.1167,34.0,86,20,8.05,few clouds
349,Blagodatnoye,RU,45.3997,42.5867,30.2,100,90,8.95,fog
350,Sosnovka,RU,56.255,51.2842,12.52,95,100,8.97,snow
351,Usvyaty,RU,55.7456,30.7533,7.47,95,100,4.85,snow
352,Swinoujscie,PL,53.9105,14.2471,34.0,99,98,15.97,overcast clouds
353,Snasa,NO,64.2457,12.3778,6.8,85,0,13.8,clear sky
354,Faya,SA,18.3851,42.4509,50.0,81,0,4.99,clear sky
355,Razole,IN,16.4833,81.8333,67.21,95,2,2.53,clear sky
356,Perth,AU,-31.9333,115.8333,63.0,55,0,11.5,clear sky
357,Moose Factory,CA,51.2585,-80.6094,24.8,93,90,3.44,overcast clouds
358,Pietersburg,ZA,-23.9045,29.4688,68.0,88,48,5.75,scattered clouds
359,San Jeronimo,PE,-11.9472,-75.2829,60.21,57,96,5.26,overcast clouds
360,Leningradskiy,RU,69.3833,178.4167,-2.79,91,100,10.47,overcast clouds
361,Punta Alta,AR,-38.8759,-62.0736,87.01,29,33,19.57,scattered clouds
362,Port Lincoln,AU,-34.7333,135.8667,59.27,65,41,20.38,scattered clouds
363,Lagoa,PT,39.05,-27.9833,62.01,89,100,25.23,overcast clouds
364,Oranjemund,NA,-28.55,16.4333,65.91,86,35,9.24,scattered clouds
365,Sisimiut,GL,66.9395,-53.6735,10.71,92,97,4.09,overcast clouds
366,Amuntai,ID,-2.4177,115.2494,72.59,98,100,0.92,overcast clouds
367,San Cristobal,VE,7.7669,-72.225,86.0,54,40,10.36,scattered clouds
368,Benguela,AO,-12.5763,13.4055,74.95,72,84,3.53,broken clouds
369,Portree,GB,57.4129,-6.1942,41.0,89,11,1.01,few clouds
370,Byron Bay,AU,-28.65,153.6167,75.2,78,0,2.3,clear sky
371,Tuatapere,NZ,-46.1333,167.6833,73.0,64,13,3.0,few clouds
372,Poya,NC,-21.35,165.15,76.69,91,100,4.79,overcast clouds
373,Lompoc,US,34.6391,-120.4579,80.6,28,1,8.05,clear sky
374,Batticaloa,LK,7.7102,81.6924,77.61,86,100,3.71,moderate rain
375,Baykit,RU,61.67,96.37,-21.75,79,16,4.23,few clouds
376,Shaoyang,CN,27.2315,111.4525,48.38,55,0,1.25,clear sky
377,West Wendover,US,40.7391,-114.0733,42.8,36,1,4.61,clear sky
378,Ust-Maya,RU,60.4167,134.5333,-48.64,76,80,1.57,broken clouds
379,Usinsk,RU,65.9939,57.5281,-17.41,86,100,6.93,overcast clouds
380,Heyang,CN,26.1011,107.473,42.46,62,30,2.04,scattered clouds
381,San Lawrenz,MT,36.0553,14.204,57.0,82,75,23.02,broken clouds
382,Grand Gaube,MU,-20.0064,57.6608,75.0,85,53,3.0,broken clouds
383,Okmulgee,US,35.6234,-95.9605,55.4,24,1,17.27,clear sky
384,Nanortalik,GL,60.1432,-45.2371,22.59,93,96,4.32,overcast clouds
385,Jalu,LY,29.0331,21.5482,53.85,84,0,8.05,clear sky
386,Margate,GB,51.3813,1.3862,39.99,72,100,4.0,overcast clouds
387,Marathon,US,44.9,-89.7668,37.0,87,90,11.5,mist
388,Pangai,TO,-19.8,-174.35,84.2,84,20,5.75,few clouds
389,Houma,US,29.5958,-90.7195,69.01,41,0,7.0,clear sky
390,Sinnamary,GF,5.3833,-52.95,77.05,87,99,12.86,overcast clouds
391,Gushikawa,JP,26.3544,127.8686,64.4,82,90,3.44,overcast clouds
392,Muzhi,RU,65.3667,64.6667,-5.84,86,100,4.9,overcast clouds
393,Saint-Pierre,RE,-21.3393,55.4781,78.8,83,75,2.3,broken clouds
394,Balabac,PH,7.9868,117.0645,78.84,85,100,3.62,moderate rain
395,Carmen,MX,18.6333,-91.8333,75.2,73,75,12.66,broken clouds
396,Muhos,FI,64.808,25.9931,-16.6,69,75,3.44,broken clouds
397,Dalian,CN,38.9122,121.6022,33.8,80,20,13.69,few clouds
398,Umm Lajj,SA,25.0213,37.2685,69.03,51,77,11.36,broken clouds
399,Mehran,IR,33.1222,46.1646,50.0,14,75,6.91,broken clouds
400,Grand Falls,CA,47.0461,-67.7418,33.8,69,90,2.01,overcast clouds
401,Basco,PH,20.4487,121.9702,70.92,72,5,18.16,clear sky
402,Meulaboh,ID,4.1363,96.1285,75.85,83,100,3.71,overcast clouds
403,Narsaq,GL,60.9167,-46.05,24.8,80,90,4.61,overcast clouds
404,Gorontalo,ID,0.5412,123.0595,75.22,87,93,3.15,overcast clouds
405,Namibe,AO,-15.1961,12.1522,72.99,68,33,5.26,scattered clouds
406,Bemidji,US,47.4736,-94.8803,35.01,100,90,5.75,snow
407,Powell,US,40.1578,-83.0752,45.0,61,1,11.5,clear sky
408,Ouargaye,BF,11.5033,0.0572,74.57,17,0,9.84,clear sky
409,Priargunsk,RU,50.3691,119.1012,-29.76,84,0,0.31,clear sky
410,Celina,US,40.5489,-84.5702,44.01,65,1,9.22,clear sky
411,Cariati,IT,39.4922,16.9594,46.99,100,90,3.44,fog
412,Kyshtovka,RU,56.555,76.6271,-18.26,86,0,6.33,clear sky
413,Havoysund,NO,70.9963,24.6622,33.8,86,75,6.91,broken clouds
414,Port Hardy,CA,50.6996,-127.4199,46.4,71,75,27.63,broken clouds
415,Pyinmana,MM,19.7333,96.2167,58.03,74,29,1.39,scattered clouds
416,Kashi,CN,39.4547,75.9797,24.8,63,0,4.47,dust
417,Sinegorye,RU,62.0788,150.477,-25.67,81,99,0.6,overcast clouds
418,Taltal,CL,-25.4,-70.4833,68.49,61,23,7.2,few clouds
419,Tapejara,BR,-28.0681,-52.0139,70.12,89,5,7.2,clear sky
420,Na Klang,TH,17.3072,102.1889,64.0,100,0,5.19,clear sky
421,Bakhtiyarpur,IN,25.4667,85.5167,44.6,93,90,3.44,fog
422,Kirakira,SB,-10.4544,161.9205,84.13,67,60,7.34,broken clouds
423,Ust-Uda,RU,54.1742,103.0304,3.79,91,100,6.46,overcast clouds
424,Yinchuan,CN,38.4681,106.2731,24.42,78,74,3.27,broken clouds
425,Lakes Entrance,AU,-37.8811,147.981,64.0,71,65,6.08,broken clouds
426,Florianopolis,BR,-27.6146,-48.5012,79.0,88,90,10.36,light intensity drizzle
427,Manokwari,ID,-0.8667,134.0833,79.45,75,100,4.85,overcast clouds
428,Cidreira,BR,-30.1811,-50.2056,72.12,73,52,19.8,broken clouds
429,Bereda,ES,43.2686,-7.5406,42.01,100,39,0.38,scattered clouds
430,Muroto,JP,33.2833,134.15,41.0,87,75,10.36,broken clouds
431,Piripiri,BR,-4.2733,-41.7769,80.13,69,63,8.37,broken clouds
432,Arman,RU,59.7,150.1667,-18.62,77,0,7.36,clear sky
433,Vestmannaeyjar,IS,63.4427,-20.2734,43.79,71,95,17.85,overcast clouds
434,Lardos,GR,36.0942,28.0157,55.4,58,40,9.22,scattered clouds
435,Artsyz,UA,45.9919,29.4182,28.58,96,88,6.22,overcast clouds
436,Huaraz,PE,-9.5333,-77.5333,56.48,68,100,5.12,light rain
437,Preston,GB,53.7667,-2.7167,33.8,100,40,8.05,scattered clouds
438,Alofi,NU,-19.0595,-169.9187,84.2,79,40,8.05,light rain
439,Evensk,RU,61.95,159.2333,-24.75,74,0,8.3,clear sky
440,Pakokku,MM,21.3333,95.1,63.99,59,71,1.63,broken clouds
441,Sioux Lookout,CA,50.1001,-91.917,32.0,86,90,4.61,overcast clouds
442,Kurilsk,RU,45.2333,147.8833,17.94,93,98,30.4,overcast clouds
443,Sinjai,ID,-5.1241,120.253,76.5,84,100,3.91,heavy intensity rain
444,Ararat,AM,39.8317,44.7049,39.2,75,40,1.14,mist
445,Yining,CN,29.0361,114.5636,45.27,58,0,0.89,clear sky
446,Bull Savanna,JM,17.8868,-77.5902,78.06,79,83,11.77,broken clouds
447,Mitsamiouli,KM,-11.3847,43.2844,80.78,77,5,9.19,clear sky
448,Salvador,SV,13.8333,-88.9167,84.2,73,20,9.22,few clouds
449,Unai,BR,-16.3575,-46.9061,72.21,90,100,4.54,overcast clouds
450,Burnie,AU,-41.0667,145.9167,53.01,92,86,4.0,light rain
451,Russell,US,32.3502,-85.1999,60.8,33,1,9.22,clear sky
452,Tonj,SS,7.2737,28.6822,74.1,23,0,4.25,clear sky
453,Loukhi,RU,66.0764,33.0381,-8.23,91,10,3.89,clear sky
454,Gilbues,BR,-9.8317,-45.3439,74.44,87,97,4.97,heavy intensity rain
455,Chuy,UY,-33.6971,-53.4616,69.35,61,0,12.26,clear sky
456,Mehadica,RO,45.0392,22.2636,32.0,85,53,1.01,broken clouds
457,Dakar,SN,14.6937,-17.4441,66.2,77,0,11.5,clear sky
458,Adrar,MR,20.5022,-10.0711,62.13,26,40,14.05,scattered clouds
459,Lasa,IT,46.6166,10.7002,35.6,93,90,5.75,light snow
460,Mapiripan,CO,2.8892,-72.1256,80.53,69,72,2.71,broken clouds
461,Khandyga,RU,62.6667,135.6,-49.72,76,55,1.83,broken clouds
462,La Ronge,CA,55.1001,-105.2842,23.0,80,99,14.97,overcast clouds
463,Huarmey,PE,-10.0681,-78.1522,73.6,76,97,10.0,overcast clouds
464,Carlagan,PH,14.975,122.0456,77.34,79,54,18.1,broken clouds
465,Kjopsvik,NO,68.097,16.3742,35.01,93,75,11.5,light snow
466,Quchan,IR,37.106,58.5095,40.26,50,33,4.52,scattered clouds
467,Lazaro Cardenas,MX,17.9583,-102.2,82.9,60,100,8.19,overcast clouds
468,Petropavlovsk-Kamchatskiy,RU,53.0452,158.6483,-0.4,71,100,6.71,overcast clouds
469,Skjervoy,NO,70.0311,20.9714,36.43,92,100,22.86,overcast clouds
470,Waipawa,NZ,-41.4122,175.5153,64.99,100,90,6.91,fog
471,Buchanan,LR,5.8808,-10.0467,75.2,94,75,3.44,broken clouds
472,Hualmay,PE,-11.0964,-77.6139,72.88,77,100,8.5,overcast clouds
473,Kortkeros,RU,61.8106,51.5806,-2.2,92,75,4.47,snow
474,Healdsburg,US,38.6105,-122.8692,71.01,72,40,1.23,scattered clouds
475,Vila Do Maio,CV,15.1333,-23.2167,71.6,68,0,18.41,clear sky
476,Daru,PG,-9.0763,143.2092,80.2,84,100,9.17,light rain
477,Ardakan,IR,32.31,54.0175,46.4,17,0,6.91,clear sky
478,Raga,SS,8.4596,25.678,67.84,24,92,4.88,overcast clouds
479,Kirkwall,GB,58.9848,-2.9587,41.0,87,90,19.57,overcast clouds
480,Belmonte,BR,-15.8631,-38.8828,78.8,73,40,11.5,scattered clouds
481,Katsuura,JP,35.1333,140.3,44.6,65,75,10.36,broken clouds
482,Casablanca,MA,33.5928,-7.6192,51.01,100,0,1.14,clear sky
483,Cherskiy,RU,68.75,161.3,-23.33,85,98,7.05,overcast clouds
484,Yarmouth,US,41.7057,-70.2286,46.4,71,90,6.6,overcast clouds
485,Nichlaul,IN,27.3167,83.7333,51.13,72,31,1.79,scattered clouds
486,Harnosand,SE,62.6323,17.9379,9.0,78,90,6.91,light snow
487,Viedma,AR,-40.8135,-62.9967,82.98,30,93,26.53,overcast clouds
488,Zabol,AF,32.25,67.25,35.29,59,0,2.3,clear sky
489,Chino Valley,US,34.7575,-112.4538,68.0,12,1,14.97,clear sky
490,Gillette,US,44.2911,-105.5022,30.2,47,90,33.38,overcast clouds
491,Tukrah,LY,32.5341,20.5791,58.5,76,5,13.44,clear sky
492,North Las Vegas,US,36.1989,-115.1175,70.0,24,1,6.91,clear sky
493,Conceicao Do Araguaia,BR,-8.2578,-49.2647,79.68,81,100,3.67,light rain
494,Mugur-Aksy,RU,50.35,90.5,-16.74,74,0,6.24,clear sky
495,San Rafael Del Sur,NI,11.8485,-86.4384,89.6,55,20,18.41,few clouds
496,Zapolyarnyy,RU,69.4154,30.8136,8.6,92,75,8.05,broken clouds
497,Uspantan,GT,15.3833,-90.8333,73.4,78,75,6.91,broken clouds
498,Bronnoysund,NO,65.4625,12.1997,26.6,74,75,1.14,broken clouds
499,Uchiza,PE,-8.4592,-76.4633,80.46,71,84,1.54,light rain
500,Nouakchott,MR,18.0858,-15.9785,71.6,12,0,13.8,clear sky
501,Bahia Blanca,AR,-38.7196,-62.2724,89.15,24,24,18.37,few clouds
502,Tonantins,BR,-2.8731,-67.8022,81.59,77,93,1.83,overcast clouds
503,Sembe,CG,1.6481,14.5806,74.07,77,73,5.66,broken clouds
504,Otelu Rosu,RO,45.5333,22.3667,27.0,97,100,3.69,light snow
505,Sawakin,SD,19.1059,37.3321,77.56,75,23,1.57,few clouds
506,Caravelas,BR,-17.7125,-39.2481,77.85,80,0,8.21,clear sky
507,Zarate,AR,-34.0981,-59.0286,84.99,50,0,1.99,clear sky
508,Moron,AR,-34.6534,-58.6198,81.0,46,0,8.01,clear sky
509,Novyy Urgal,RU,51.0736,132.5642,-20.38,86,96,1.88,light snow
510,Shimoda,JP,34.6667,138.95,41.0,79,94,15.48,overcast clouds
511,Cuamba,MZ,-14.8031,36.5372,71.58,94,100,2.33,light rain
512,Yuma,US,32.7253,-114.6244,79.0,13,20,16.11,few clouds
513,Padang,ID,-0.9492,100.3543,76.37,70,29,4.41,scattered clouds
514,Vanavara,RU,60.34,102.2797,-10.16,89,100,8.01,overcast clouds
515,Cap Malheureux,MU,-19.9842,57.6142,75.0,85,39,3.0,scattered clouds
516,Tarauaca,BR,-8.1614,-70.7656,74.01,97,100,2.08,light rain
517,Banda Aceh,ID,5.5577,95.3222,76.86,84,98,8.93,overcast clouds
518,Kuytun,RU,54.3419,101.5036,5.07,86,100,11.81,overcast clouds
519,Ekibastuz,KZ,51.6667,75.3667,-14.37,84,0,7.72,clear sky
520,Druzhba,UA,52.0428,33.9453,16.72,97,89,6.6,snow
521,Pita,GN,10.8333,-12.5833,73.6,19,43,4.54,scattered clouds
522,Salmas,IR,38.1973,44.7653,41.0,65,75,9.22,broken clouds
523,Neryungri,RU,56.6709,124.6491,-30.68,75,41,1.66,scattered clouds
524,Coquimbo,CL,-29.9533,-71.3436,64.4,68,0,12.66,clear sky
525,Novooleksiyivka,UA,46.2269,34.6428,31.37,96,100,5.99,overcast clouds
526,Zeya,RU,53.75,127.2667,-22.86,84,24,0.63,few clouds
527,Wheatley,GB,51.7473,-1.1394,37.4,87,75,9.22,broken clouds
528,Mwense,ZM,-10.3845,28.698,66.43,93,94,3.47,light rain
529,Purna,IN,19.1833,77.05,65.97,44,0,5.14,clear sky
530,Zhigalovo,RU,54.8097,105.1578,1.09,90,100,6.8,overcast clouds
531,Orange Cove,US,36.6244,-119.3137,64.99,52,1,1.66,clear sky
532,Acajutla,SV,13.5928,-89.8275,87.8,37,0,4.61,clear sky
533,Acolla,PE,-11.7319,-75.5463,56.59,62,95,8.14,overcast clouds
534,Sibolga,ID,1.7427,98.7792,75.65,76,100,3.04,overcast clouds
535,Ilulissat,GL,69.2167,-51.1,17.6,93,75,3.44,light snow
536,Moron De La Frontera,ES,37.1208,-5.454,37.4,93,0,3.44,clear sky
537,Bilibino,RU,68.0546,166.4372,-21.78,83,98,0.72,overcast clouds
538,Staroaleyskoye,RU,51.0061,82.0,-23.06,83,0,1.68,clear sky
539,Leshukonskoye,RU,64.8989,45.7622,-13.76,87,95,4.23,overcast clouds
540,Nuevo Progreso,MX,23.1667,-97.95,75.99,47,71,4.0,broken clouds
541,Novospasskoye,RU,53.1468,47.7514,16.23,96,100,5.86,light snow
542,Kwinana,AU,-32.25,115.7667,64.0,59,28,20.71,scattered clouds
543,Fria,GN,10.4167,-13.5833,69.73,87,15,1.81,few clouds
544,Tahe,CN,52.3333,124.7333,-20.16,84,0,2.42,clear sky
545,Ulladulla,AU,-35.35,150.4667,69.8,68,40,8.05,scattered clouds
546,Charlestown,AU,-32.95,151.6667,75.99,86,85,7.09,overcast clouds
547,Severodvinsk,RU,64.5635,39.8302,-29.2,68,0,2.42,clear sky
548,San Clemente,US,33.427,-117.612,81.0,29,0,4.88,clear sky
549,Kinablangan,PH,7.6947,126.5503,77.68,80,58,5.41,light rain
550,Sosenskiy,RU,54.059,35.9623,3.2,85,38,2.24,scattered clouds
551,Formosa,AR,-26.1775,-58.1781,93.2,55,75,6.91,broken clouds
552,Talaya,RU,61.3833,152.75,-38.04,79,100,0.36,overcast clouds
553,Lingao,CN,19.9103,109.6859,59.32,62,8,5.14,clear sky
554,Beringovskiy,RU,63.05,179.3167,-16.55,87,23,7.78,few clouds
555,Grand Baie,MU,-20.0182,57.5802,75.0,85,28,3.0,scattered clouds
556,Mezen,RU,65.8522,44.24,-17.91,86,0,2.26,clear sky
557,Luganville,VU,-15.5333,167.1667,85.28,71,99,6.08,light rain
558,Snyder,US,32.7179,-100.9176,51.8,28,1,12.66,clear sky
559,Nishihara,JP,26.1842,127.7558,64.4,72,90,11.5,overcast clouds
560,Jiaohe,CN,43.7286,127.3447,10.09,94,100,4.63,light snow
561,Xining,CN,36.6167,101.7667,21.29,73,89,0.63,overcast clouds
562,Yar-Sale,RU,66.8333,70.8333,-5.46,88,75,7.52,broken clouds
563,Cortland,US,42.6001,-76.083,36.0,87,90,1.59,overcast clouds
564,Mantua,IT,45.1667,10.7833,36.0,93,88,3.0,overcast clouds
565,Saint-Augustin,CA,51.226,-58.6502,26.64,95,100,4.92,overcast clouds
566,Anloga,GH,5.7947,0.8973,80.6,89,20,9.22,few clouds
567,Mehamn,NO,71.0357,27.8492,28.4,93,75,9.22,broken clouds
568,Isla Vista,US,34.4133,-119.861,82.0,22,1,6.91,clear sky
569,Shestakovo,RU,56.4915,103.96,3.54,90,100,11.5,light snow
570,Vardo,NO,70.3705,31.1107,32.0,69,75,11.5,broken clouds
571,Turayf,SA,31.6725,38.6637,44.6,93,40,9.22,scattered clouds
572,Akdepe,TM,42.0551,59.3788,33.8,64,0,11.5,clear sky
573,Glenwood Springs,US,39.5505,-107.3248,37.4,38,1,8.05,clear sky
574,Angouleme,FR,45.65,0.15,46.0,93,75,9.22,broken clouds
575,Namtsy,RU,62.7161,129.6658,-59.8,57,90,3.31,fog
576,Macapa,BR,0.0389,-51.0664,86.0,74,20,13.8,heavy intensity rain
577,Grajau,BR,-5.8194,-46.1386,75.63,93,100,3.89,light rain
578,Arvika,SE,59.6553,12.5852,17.6,93,90,3.44,overcast clouds
579,Sakakah,SA,29.9697,40.2064,55.4,67,0,8.05,clear sky
580,Alekseyevka,RU,50.6309,38.6903,14.54,95,76,2.15,broken clouds
581,Rio Verde De Mato Grosso,BR,-18.9181,-54.8442,78.12,80,94,2.53,overcast clouds
582,Raipur,IN,21.2333,81.6333,54.09,41,0,2.75,clear sky
583,Manutuke,NZ,-38.6833,177.9167,71.01,70,100,4.0,overcast clouds
584,Challakere,IN,14.3167,76.65,69.19,76,1,5.64,clear sky
585,Liling,CN,27.6667,113.5,37.4,93,0,2.24,clear sky
586,Ponta Delgada,PT,37.7333,-25.6667,62.01,94,75,12.66,broken clouds
587,Imbituba,BR,-28.24,-48.6703,71.6,88,90,10.36,light intensity drizzle
588,Ola,RU,59.5833,151.2833,-19.44,79,0,7.43,clear sky
589,Big Spring,US,32.2504,-101.4787,55.0,30,1,10.36,clear sky
590,Acapulco,MX,16.8634,-99.8901,82.4,74,90,9.22,overcast clouds
591,Lagos,NG,6.5833,3.75,79.23,82,0,5.44,clear sky
592,Balkhash,KZ,46.844,74.9804,-5.84,84,0,15.23,clear sky
593,Bandarbeyla,SO,9.4942,50.8122,73.72,76,21,16.26,few clouds
594,Sept-Iles,CA,50.2001,-66.3821,28.99,93,96,1.14,overcast clouds
595,Le Vauclin,MQ,14.5452,-60.8388,78.8,83,90,10.36,overcast clouds
596,Fort Walton Beach,US,30.4058,-86.6188,60.8,63,1,6.91,clear sky
597,Cody,US,44.5263,-109.0565,35.01,25,1,14.97,clear sky
598,Potchefstroom,ZA,-26.7167,27.1,68.76,77,72,1.86,broken clouds
599,Palmer,US,42.1584,-72.3287,37.0,100,90,3.44,light snow
600,Kindu,CD,-2.95,25.95,69.06,97,100,1.28,overcast clouds
601,Ankang,CN,32.68,109.0172,39.72,66,10,1.83,clear sky
602,Najran,SA,17.4924,44.1277,57.2,33,0,1.16,clear sky
603,Puerto Penasco,MX,31.3167,-113.5333,75.0,22,8,7.0,clear sky
604,Atar,MR,20.5169,-13.0499,64.31,24,91,14.5,overcast clouds
605,Kungurtug,RU,50.5994,97.5228,-13.54,84,100,0.67,overcast clouds
606,Cassilandia,BR,-19.1133,-51.7342,74.16,90,100,0.27,light rain
607,Sobolevo,RU,54.4299,31.8996,-1.71,92,99,4.97,overcast clouds
608,Saint-Andre-Les-Vergers,FR,48.2853,4.0521,46.4,93,90,18.41,overcast clouds
609,Kutum,SD,14.2,24.6667,57.85,32,0,9.69,clear sky
610,Hovd,MN,48.0056,91.6419,-3.48,73,3,6.26,clear sky
611,Rio Grande,BR,-32.035,-52.0986,75.0,63,1,4.0,clear sky
612,Natal,BR,-5.795,-35.2094,80.6,74,20,11.5,few clouds
613,Paragominas,BR,-2.9667,-47.4833,74.19,96,99,3.85,light rain
614,Salinas,US,36.6777,-121.6555,75.2,38,1,6.91,clear sky
615,Prince Rupert,CA,54.3161,-130.3201,46.4,70,90,12.66,heavy intensity rain
616,Sumkino,RU,58.1108,68.3244,-14.4,86,77,6.69,broken clouds
617,Soloneshnoye,RU,51.6544,84.3197,-11.06,81,0,2.01,clear sky
618,Chernyshevskiy,RU,63.0128,112.4714,-10.21,92,100,5.12,overcast clouds
619,Naron,ES,43.5167,-8.1528,52.0,100,75,3.44,light intensity drizzle
620,Roma,US,43.2128,-75.4557,37.4,70,90,1.48,overcast clouds
621,San Rafael,AR,-34.6177,-68.3301,90.05,30,5,19.26,clear sky
622,Roebourne,AU,-20.7833,117.1333,91.76,45,54,5.32,light rain
623,Jacareacanga,BR,-6.2222,-57.7528,76.41,95,100,1.54,light rain
624,Pacsa,HU,46.7198,17.014,33.8,69,0,11.5,clear sky
625,Tome,CL,-36.6167,-72.95,66.2,59,0,13.8,clear sky
626,Panjab,AF,34.388,67.0233,16.3,47,7,2.28,clear sky
627,Praia,CV,14.9215,-23.5087,71.6,68,0,18.41,clear sky
628,High Level,CA,58.5169,-117.136,15.8,100,20,2.3,few clouds
629,Yongan,CN,39.6957,113.6871,16.45,82,53,15.37,broken clouds
630,Ayorou,NE,14.7308,0.9174,74.21,18,0,7.05,clear sky
631,Rochegda,RU,62.8,43.25,-7.74,91,99,3.04,overcast clouds
632,Ler,SS,8.3018,30.1418,74.95,19,0,5.64,clear sky
633,Tiznit,MA,29.5833,-9.5,49.78,68,5,1.28,clear sky
634,Araioses,BR,-2.89,-41.9031,82.4,78,40,19.57,scattered clouds
635,Veraval,IN,20.9,70.3667,68.2,36,0,9.93,clear sky
636,Sao Paulo De Olivenca,BR,-3.3783,-68.8725,80.15,90,100,1.86,overcast clouds
637,Chiang Rai,TH,19.9167,99.9167,55.4,100,15,1.14,few clouds
638,Grindavik,IS,63.8424,-22.4338,37.4,87,75,16.11,broken clouds
639,Neckargemund,DE,49.3922,8.7942,33.8,75,0,1.14,clear sky
640,Sao Gabriel Da Cachoeira,BR,-0.1303,-67.0892,78.94,95,86,2.53,moderate rain
641,Alice Springs,AU,-23.7,133.8833,84.2,28,0,8.05,clear sky
642,General Roca,AR,-39.0333,-67.5833,84.2,51,0,5.75,clear sky
643,Tsiroanomandidy,MG,-18.7667,46.0333,68.43,92,100,3.76,overcast clouds
644,Whitianga,NZ,-36.8333,175.7,78.01,65,6,5.01,clear sky
645,Barstow,US,34.8986,-117.0228,69.8,19,1,2.46,clear sky
646,Bafq,IR,31.6128,55.4107,52.0,35,32,8.37,scattered clouds
647,Saint-Joseph,RE,-21.3667,55.6167,78.8,83,75,2.3,broken clouds
648,Nyaunglebin,MM,17.95,96.7333,60.49,76,0,0.94,clear sky
649,Soyo,AO,-6.1349,12.3689,78.26,74,0,7.65,clear sky
650,Manhattan,US,40.7834,-73.9662,50.0,46,20,3.49,few clouds
651,Axim,GH,4.8699,-2.2405,79.38,85,93,9.28,overcast clouds
652,Simplicio Mendes,BR,-7.8539,-41.9103,75.79,84,60,4.47,broken clouds
653,Nuuk,GL,64.1835,-51.7216,23.0,93,75,1.14,light snow
654,Bud,US,39.447,-86.1758,45.0,75,100,9.26,overcast clouds
655,Saint-Leu,RE,-21.15,55.2833,78.8,83,75,2.3,broken clouds
656,Taraza,CO,7.5836,-75.4007,82.45,81,70,2.26,light rain
657,Wageningen,NL,51.9667,5.6667,34.0,100,90,10.36,overcast clouds
658,Mus,TR,39.0,41.75,31.42,98,99,7.9,light snow
659,Kalmunai,LK,7.4167,81.8167,77.99,85,100,2.68,light rain
660,Port Augusta,AU,-32.5,137.7667,60.8,67,90,11.5,overcast clouds
661,Teahupoo,PF,-17.8333,-149.2667,87.8,62,40,3.44,scattered clouds
662,Port-Gentil,GA,-0.7193,8.7815,78.8,94,20,3.44,few clouds
663,Raudeberg,NO,61.9875,5.1352,30.99,88,0,5.66,clear sky
664,Pandan,PH,14.0453,124.1694,78.42,88,91,10.92,light rain
665,Jiangyou,CN,31.7667,104.7167,38.64,71,0,3.62,clear sky
666,Krasnoselkup,RU,65.7,82.4667,-21.06,80,99,3.98,overcast clouds
667,Arshan,RU,46.2732,44.22,30.2,100,88,6.71,overcast clouds
668,Filimonovo,RU,56.2011,95.4611,1.27,89,100,22.86,overcast clouds
669,Dryden,CA,49.7833,-92.7503,32.0,86,90,6.91,light snow
670,Kamaishi,JP,39.2667,141.8833,25.92,88,0,7.16,clear sky
671,Tubmanburg,LR,6.8708,-10.8172,74.82,94,66,2.66,broken clouds
672,Batagay-Alyta,RU,67.8006,130.4114,-37.91,70,81,0.11,broken clouds
673,Sabang,ID,5.8933,95.3214,80.94,79,97,15.52,overcast clouds
674,Ngunguru,NZ,-35.6167,174.5,77.0,61,4,5.01,clear sky
675,San Quintin,MX,30.4833,-115.95,70.52,31,0,7.14,clear sky
676,Muros,ES,42.7762,-9.0603,52.0,88,61,3.53,broken clouds
677,Lagarto,BR,-10.9172,-37.65,80.6,83,20,12.66,few clouds
678,West Bay,KY,19.3667,-81.4167,84.2,70,20,2.3,few clouds
679,Elbrus,RU,43.2577,42.6443,31.23,87,98,9.31,light snow
680,Gladstone,AU,-23.85,151.25,78.8,61,0,9.22,light rain
681,Tera,NE,14.0078,0.7531,72.36,19,0,8.12,clear sky
682,Ahvaz,IR,31.3203,48.6693,51.8,76,75,2.3,haze
683,Murgab,TM,37.4966,61.9714,44.6,87,0,9.22,clear sky
684,Sesheke,ZM,-17.4759,24.2968,69.21,92,100,5.26,light rain
685,Darasun,RU,51.6667,114.0,-9.4,64,0,11.18,clear sky
686,Gizo,SB,-8.103,156.8419,84.27,72,39,12.8,scattered clouds
687,Harrai,IN,22.6167,79.2167,50.47,41,0,1.74,clear sky
688,Huambo,AO,-12.7761,15.7392,58.39,73,94,3.29,overcast clouds
689,Almaznyy,RU,48.0448,40.045,28.4,86,90,11.18,overcast clouds
690,Poplar Bluff,US,36.757,-90.3929,55.4,47,90,8.05,overcast clouds
691,Deqing,CN,30.5448,119.9599,50.0,57,22,7.0,few clouds
692,Lewiston,US,44.1003,-70.2148,33.01,95,90,2.57,overcast clouds
693,Durban,ZA,-29.8579,31.0292,79.0,83,0,8.05,clear sky
694,Varna,BG,43.2167,27.9167,33.8,86,75,4.61,light snow
695,Tamandare,BR,-8.7597,-35.1047,78.87,77,22,10.54,few clouds
696,Mopti,ML,14.6667,-4.0,78.8,29,0,9.22,clear sky
